{"type":"FeatureCollection","features":[{"type":"Feature","geometry":{"type":"Point","coordinates":[138.5204,-34.9524]},"properties":{"Name":"Adelaide Airport","State":"South Australia","json":"http://www.bom.gov.au/fwo/IDS60801/IDS60801.94672.json"}},{"type":"Feature","geometry":{"type":"Point","coordinates":[117.8158,-34.9411]},"properties":{"Name":"Albany Airport","State":"Western Australia","json":"http://www.bom.gov.au/fwo/IDW60801/IDW60801.94802.json"}},{"type":"Feature","geometry":{"type":"Point","coordinates":[147.4833,-19.4569]},"properties":{"Name":"Alva Beach","State":"Queensland","json":"http://www.bom.gov.au/fwo/IDQ60801/IDQ60801.95296.json"}},{"type":"Feature","geometry":{"type":"Point","coordinates":[137.1692,-30.449]},"properties":{"Name":"Andamooka","State":"South Australia","json":"http://www.bom.gov.au/fwo/IDS60801/IDS60801.95660.json"}},{"type":"Feature","geometry":{"type":"Point","coordinates":[151.9533,-28.6217]},"properties":{"Name":"Applethorpe","State":"New South Wales","json":"http://www.bom.gov.au/fwo/IDN60801/IDN60801.94553.json"}},{"type":"Feature","geometry":{"type":"Point","coordinates":[139.3357,-30.311]},"properties":{"Name":"Arkaroola","State":"South Australia","json":"http://www.bom.gov.au/fwo/IDS60801/IDS60801.94676.json"}},{"type":"Feature","geometry":{"type":"Point","coordinates":[115.3931,-20.8206]},"properties":{"Name":"Barrow Island","State":"Western Australia","json":"http://www.bom.gov.au/fwo/IDW60801/IDW60801.95304.json"}},{"type":"Feature","geometry":{"type":"Point","coordinates":[119.0997,-19.5886]},"properties":{"Name":"Bedout Island","State":"Western Australia","json":"http://www.bom.gov.au/fwo/IDW60801/IDW60801.94310.json"}},{"type":"Feature","geometry":{"type":"Point","coordinates":[121.7803,-18.6844]},"properties":{"Name":"Bidyadanga","State":"Western Australia","json":"http://www.bom.gov.au/fwo/IDW60801/IDW60801.94202.json"}},{"type":"Feature","geometry":{"type":"Point","coordinates":[149.2336,-37.0016]},"properties":{"Name":"Bombala AWS","State":"New South Wales","json":"http://www.bom.gov.au/fwo/IDN60801/IDN60801.94929.json"}},{"type":"Feature","geometry":{"type":"Point","coordinates":[136.3,-16.0667]},"properties":{"Name":"Borroloola","State":"Northern Territory","json":"http://www.bom.gov.au/fwo/IDD60801/IDD60801.94152.json"}},{"type":"Feature","geometry":{"type":"Point","coordinates":[136.3041,-16.0757]},"properties":{"Name":"Borroloola","State":"Northern Territory","json":"http://www.bom.gov.au/fwo/IDD60801/IDD60801.94152.json"}},{"type":"Feature","geometry":{"type":"Point","coordinates":[147.1183,-15.4877]},"properties":{"Name":"Bougainville Reef","State":"Queensland","json":"http://www.bom.gov.au/fwo/IDQ60801/IDQ60801.95288.json"}},{"type":"Feature","geometry":{"type":"Point","coordinates":[135.945,-18.637]},"properties":{"Name":"Brunette Downs","State":"Northern Territory","json":"http://www.bom.gov.au/fwo/IDD60801/IDD60801.94242.json"}},{"type":"Feature","geometry":{"type":"Point","coordinates":[119.7436,-28.4967]},"properties":{"Name":"Bulga Downs","State":"Western Australia","json":"http://www.bom.gov.au/fwo/IDW60801/IDW60801.94444.json"}},{"type":"Feature","geometry":{"type":"Point","coordinates":[134.3333,-13.6667]},"properties":{"Name":"Bulman","State":"Northern Territory","json":"http://www.bom.gov.au/fwo/IDD60801/IDD60801.94143.json"}},{"type":"Feature","geometry":{"type":"Point","coordinates":[115.6447,-33.3567]},"properties":{"Name":"Bunbury","State":"Western Australia","json":"http://www.bom.gov.au/fwo/IDW60801/IDW60801.94604.json"}},{"type":"Feature","geometry":{"type":"Point","coordinates":[148.5984,-34.9997]},"properties":{"Name":"Burrinjuck Dam","State":"New South Wales","json":"http://www.bom.gov.au/fwo/IDN60801/IDN60801.94909.json"}},{"type":"Feature","geometry":{"type":"Point","coordinates":[146.2758,-42.2753]},"properties":{"Name":"Butlers Gorge","State":"Tasmania","json":"http://www.bom.gov.au/fwo/IDT60801/IDT60801.94959.json"}},{"type":"Feature","geometry":{"type":"Point","coordinates":[136.5959,-35.7549]},"properties":{"Name":"Cape Borda","State":"South Australia","json":"http://www.bom.gov.au/fwo/IDS60801/IDS60801.95805.json"}},{"type":"Feature","geometry":{"type":"Point","coordinates":[131.7667,-11.3167]},"properties":{"Name":"Cape Don","State":"Northern Territory","json":"http://www.bom.gov.au/fwo/IDD60801/IDD60801.94129.json"}},{"type":"Feature","geometry":{"type":"Point","coordinates":[131.7651,-11.3081]},"properties":{"Name":"Cape Don","State":"Northern Territory","json":"http://www.bom.gov.au/fwo/IDD60801/IDD60801.94129.json"}},{"type":"Feature","geometry":{"type":"Point","coordinates":[145.17,-42.1986]},"properties":{"Name":"Cape Sorell","State":"Tasmania","json":"http://www.bom.gov.au/fwo/IDT60801/IDT60801.94974.json"}},{"type":"Feature","geometry":{"type":"Point","coordinates":[138.1327,-35.8426]},"properties":{"Name":"Cape Willoughby","State":"South Australia","json":"http://www.bom.gov.au/fwo/IDS60801/IDS60801.94822.json"}},{"type":"Feature","geometry":{"type":"Point","coordinates":[122.9753,-25.7964]},"properties":{"Name":"Carnegie","State":"Western Australia","json":"http://www.bom.gov.au/fwo/IDW60801/IDW60801.94451.json"}},{"type":"Feature","geometry":{"type":"Point","coordinates":[133.0861,-13.3275]},"properties":{"Name":"Central Arnhem Plateau","State":"Northern Territory","json":"http://www.bom.gov.au/fwo/IDD60801/IDD60801.94141.json"}},{"type":"Feature","geometry":{"type":"Point","coordinates":[136.4937,-33.7011]},"properties":{"Name":"Cleve","State":"South Australia","json":"http://www.bom.gov.au/fwo/IDS60801/IDS60801.94661.json"}},{"type":"Feature","geometry":{"type":"Point","coordinates":[143.0686,-10.0511]},"properties":{"Name":"Coconut Island","State":"Queensland","json":"http://www.bom.gov.au/fwo/IDQ60801/IDQ60801.94182.json"}},{"type":"Feature","geometry":{"type":"Point","coordinates":[116.1717,-33.3608]},"properties":{"Name":"Collie East","State":"Western Australia","json":"http://www.bom.gov.au/fwo/IDW60801/IDW60801.95621.json"}},{"type":"Feature","geometry":{"type":"Point","coordinates":[134.7222,-29.0347]},"properties":{"Name":"Coober Pedy Airport","State":"South Australia","json":"http://www.bom.gov.au/fwo/IDS60801/IDS60801.95458.json"}},{"type":"Feature","geometry":{"type":"Point","coordinates":[153.5053,-28.1681]},"properties":{"Name":"Coolangatta","State":"New South Wales","json":"http://www.bom.gov.au/fwo/IDN60801/IDN60801.94592.json"}},{"type":"Feature","geometry":{"type":"Point","coordinates":[140.8333,-37.3]},"properties":{"Name":"Coonawarra","State":"South Australia","json":"http://www.bom.gov.au/fwo/IDS60801/IDS60801.94817.json"}},{"type":"Feature","geometry":{"type":"Point","coordinates":[140.8254,-37.2906]},"properties":{"Name":"Coonawarra","State":"South Australia","json":"http://www.bom.gov.au/fwo/IDS60801/IDS60801.94817.json"}},{"type":"Feature","geometry":{"type":"Point","coordinates":[150.3773,-20.5303]},"properties":{"Name":"Creal Reef","State":"Queensland","json":"http://www.bom.gov.au/fwo/IDQ60801/IDQ60801.94371.json"}},{"type":"Feature","geometry":{"type":"Point","coordinates":[133.37,-16.253]},"properties":{"Name":"Daly Waters","State":"Northern Territory","json":"http://www.bom.gov.au/fwo/IDD60801/IDD60801.94234.json"}},{"type":"Feature","geometry":{"type":"Point","coordinates":[141.2614,-37.9222]},"properties":{"Name":"Dartmoor","State":"Victoria","json":"http://www.bom.gov.au/fwo/IDV60801/IDV60801.95822.json"}},{"type":"Feature","geometry":{"type":"Point","coordinates":[113.5319,-25.9261]},"properties":{"Name":"Denham","State":"Western Australia","json":"http://www.bom.gov.au/fwo/IDW60801/IDW60801.94402.json"}},{"type":"Feature","geometry":{"type":"Point","coordinates":[115.8247,-33.5719]},"properties":{"Name":"Donnybrook","State":"Western Australia","json":"http://www.bom.gov.au/fwo/IDW60801/IDW60801.95622.json"}},{"type":"Feature","geometry":{"type":"Point","coordinates":[147.0075,-43.3167]},"properties":{"Name":"Dover","State":"Tasmania","json":"http://www.bom.gov.au/fwo/IDT60801/IDT60801.94961.json"}},{"type":"Feature","geometry":{"type":"Point","coordinates":[137.7395,-35.1121]},"properties":{"Name":"Edithburgh","State":"South Australia","json":"http://www.bom.gov.au/fwo/IDS60801/IDS60801.94809.json"}},{"type":"Feature","geometry":{"type":"Point","coordinates":[145.8423,-37.2091]},"properties":{"Name":"Eildon Fire Tower","State":"Victoria","json":"http://www.bom.gov.au/fwo/IDV60801/IDV60801.94881.json"}},{"type":"Feature","geometry":{"type":"Point","coordinates":[144.9066,-37.7276]},"properties":{"Name":"Essendon Airport","State":"Victoria","json":"http://www.bom.gov.au/fwo/IDV60801/IDV60801.95866.json"}},{"type":"Feature","geometry":{"type":"Point","coordinates":[145.3496,-37.8748]},"properties":{"Name":"Ferny Creek","State":"Victoria","json":"http://www.bom.gov.au/fwo/IDV60801/IDV60801.94872.json"}},{"type":"Feature","geometry":{"type":"Point","coordinates":[154.4019,-20.9375]},"properties":{"Name":"Frederick Reef","State":"Queensland","json":"http://www.bom.gov.au/fwo/IDQ60801/IDQ60801.94393.json"}},{"type":"Feature","geometry":{"type":"Point","coordinates":[148.2794,-41.9953]},"properties":{"Name":"Friendly Beaches","State":"Tasmania","json":"http://www.bom.gov.au/fwo/IDT60801/IDT60801.94987.json"}},{"type":"Feature","geometry":{"type":"Point","coordinates":[151.2214,-23.8697]},"properties":{"Name":"Gladstone Airport","State":"Queensland","json":"http://www.bom.gov.au/fwo/IDQ60801/IDQ60801.94381.json"}},{"type":"Feature","geometry":{"type":"Point","coordinates":[149.8667,-34.75]},"properties":{"Name":"Goulburn","State":"New South Wales","json":"http://www.bom.gov.au/fwo/IDN60801/IDN60801.94716.json"}},{"type":"Feature","geometry":{"type":"Point","coordinates":[148.9511,-20.3528]},"properties":{"Name":"Hamilton Island","State":"Queensland","json":"http://www.bom.gov.au/fwo/IDQ60801/IDQ60801.94368.json"}},{"type":"Feature","geometry":{"type":"Point","coordinates":[147.8734,-16.4683]},"properties":{"Name":"Holmes Reef","State":"Queensland","json":"http://www.bom.gov.au/fwo/IDQ60801/IDQ60801.94289.json"}},{"type":"Feature","geometry":{"type":"Point","coordinates":[120.1283,-33.9306]},"properties":{"Name":"Hopetoun North","State":"Western Australia","json":"http://www.bom.gov.au/fwo/IDW60801/IDW60801.95635.json"}},{"type":"Feature","geometry":{"type":"Point","coordinates":[147.0329,-36.1039]},"properties":{"Name":"Hume Reservoir","State":"New South Wales","json":"http://www.bom.gov.au/fwo/IDN60801/IDN60801.94901.json"}},{"type":"Feature","geometry":{"type":"Point","coordinates":[147.5394,-36.2136]},"properties":{"Name":"Hunters Hill","State":"Victoria","json":"http://www.bom.gov.au/fwo/IDV60801/IDV60801.94878.json"}},{"type":"Feature","geometry":{"type":"Point","coordinates":[118.8983,-32.4419]},"properties":{"Name":"Hyden","State":"Western Australia","json":"http://www.bom.gov.au/fwo/IDW60801/IDW60801.95627.json"}},{"type":"Feature","geometry":{"type":"Point","coordinates":[137.6953,-33.9551]},"properties":{"Name":"Kadina","State":"South Australia","json":"http://www.bom.gov.au/fwo/IDS60801/IDS60801.94685.json"}},{"type":"Feature","geometry":{"type":"Point","coordinates":[126.6453,-14.2964]},"properties":{"Name":"Kalumburu","State":"Northern Territory","json":"http://www.bom.gov.au/fwo/IDD60801/IDD60801.94100.json"}},{"type":"Feature","geometry":{"type":"Point","coordinates":[140.3556,-36.098]},"properties":{"Name":"Keith","State":"South Australia","json":"http://www.bom.gov.au/fwo/IDS60801/IDS60801.94816.json"}},{"type":"Feature","geometry":{"type":"Point","coordinates":[143.8829,-39.8801]},"properties":{"Name":"King Island Airport","State":"Tasmania","json":"http://www.bom.gov.au/fwo/IDT60801/IDT60801.94850.json"}},{"type":"Feature","geometry":{"type":"Point","coordinates":[137.6377,-35.656]},"properties":{"Name":"Kingscote","State":"South Australia","json":"http://www.bom.gov.au/fwo/IDS60801/IDS60801.95807.json"}},{"type":"Feature","geometry":{"type":"Point","coordinates":[145.0638,-36.335]},"properties":{"Name":"Kyabram","State":"Victoria","json":"http://www.bom.gov.au/fwo/IDV60801/IDV60801.95833.json"}},{"type":"Feature","geometry":{"type":"Point","coordinates":[152.7161,-24.1116]},"properties":{"Name":"Lady Elliot Island","State":"Queensland","json":"http://www.bom.gov.au/fwo/IDQ60801/IDQ60801.94388.json"}},{"type":"Feature","geometry":{"type":"Point","coordinates":[130.6358,-18.3325]},"properties":{"Name":"Lajamanu","State":"Northern Territory","json":"http://www.bom.gov.au/fwo/IDD60801/IDD60801.94231.json"}},{"type":"Feature","geometry":{"type":"Point","coordinates":[147.9961,-37.8692]},"properties":{"Name":"Lakes Entrance","State":"Victoria","json":"http://www.bom.gov.au/fwo/IDV60801/IDV60801.95904.json"}},{"type":"Feature","geometry":{"type":"Point","coordinates":[116.8431,-20.3583]},"properties":{"Name":"Legendre Island","State":"Western Australia","json":"http://www.bom.gov.au/fwo/IDW60801/IDW60801.94307.json"}},{"type":"Feature","geometry":{"type":"Point","coordinates":[147.525,-23.9424]},"properties":{"Name":"Lochington","State":"Queensland","json":"http://www.bom.gov.au/fwo/IDQ60801/IDQ60801.94399.json"}},{"type":"Feature","geometry":{"type":"Point","coordinates":[159.0833,-31.55]},"properties":{"Name":"Lord Howe Island","State":"New South Wales","json":"http://www.bom.gov.au/fwo/IDN60801/IDN60801.94995.json"}},{"type":"Feature","geometry":{"type":"Point","coordinates":[145.5025,-42.9831]},"properties":{"Name":"Low Rocky Point","State":"Tasmania","json":"http://www.bom.gov.au/fwo/IDT60801/IDT60801.95961.json"}},{"type":"Feature","geometry":{"type":"Point","coordinates":[137.6733,-34.3745]},"properties":{"Name":"Maitland","State":"New South Wales","json":"http://www.bom.gov.au/fwo/IDN60801/IDN60801.95775.json"}},{"type":"Feature","geometry":{"type":"Point","coordinates":[137.6733,-34.3745]},"properties":{"Name":"Maitland","State":"South Australia","json":"http://www.bom.gov.au/fwo/IDS60801/IDS60801.94665.json"}},{"type":"Feature","geometry":{"type":"Point","coordinates":[115.75,-32.5211]},"properties":{"Name":"Mandurah","State":"Western Australia","json":"http://www.bom.gov.au/fwo/IDW60801/IDW60801.94605.json"}},{"type":"Feature","geometry":{"type":"Point","coordinates":[115.7119,-32.5219]},"properties":{"Name":"Mandurah","State":"Western Australia","json":"http://www.bom.gov.au/fwo/IDW60801/IDW60801.94605.json"}},{"type":"Feature","geometry":{"type":"Point","coordinates":[115.9797,-21.1906]},"properties":{"Name":"Mardie","State":"Western Australia","json":"http://www.bom.gov.au/fwo/IDW60801/IDW60801.94306.json"}},{"type":"Feature","geometry":{"type":"Point","coordinates":[152.3892,-19.0964]},"properties":{"Name":"Marion Reef","State":"Queensland","json":"http://www.bom.gov.au/fwo/IDQ60801/IDQ60801.94298.json"}},{"type":"Feature","geometry":{"type":"Point","coordinates":[144.7094,-40.9089]},"properties":{"Name":"Marrawah","State":"Tasmania","json":"http://www.bom.gov.au/fwo/IDT60801/IDT60801.94950.json"}},{"type":"Feature","geometry":{"type":"Point","coordinates":[152.7156,-25.5161]},"properties":{"Name":"Maryborough","State":"Queensland","json":"http://www.bom.gov.au/fwo/IDQ60801/IDQ60801.94567.json"}},{"type":"Feature","geometry":{"type":"Point","coordinates":[143.732,-37.056]},"properties":{"Name":"Maryborough","State":"Queensland","json":"http://www.bom.gov.au/fwo/IDQ60801/IDQ60801.94567.json"}},{"type":"Feature","geometry":{"type":"Point","coordinates":[136.076,-16.4423]},"properties":{"Name":"McArthur River Mine","State":"Northern Territory","json":"http://www.bom.gov.au/fwo/IDD60801/IDD60801.94239.json"}},{"type":"Feature","geometry":{"type":"Point","coordinates":[140.1956,-28.0997]},"properties":{"Name":"Moomba Airport","State":"South Australia","json":"http://www.bom.gov.au/fwo/IDS60801/IDS60801.95481.json"}},{"type":"Feature","geometry":{"type":"Point","coordinates":[145.0962,-37.98]},"properties":{"Name":"Moorabbin Airport","State":"Victoria","json":"http://www.bom.gov.au/fwo/IDV60801/IDV60801.94870.json"}},{"type":"Feature","geometry":{"type":"Point","coordinates":[148.0758,-22.0644]},"properties":{"Name":"Moranbah Airport","State":"Queensland","json":"http://www.bom.gov.au/fwo/IDQ60801/IDQ60801.94397.json"}},{"type":"Feature","geometry":{"type":"Point","coordinates":[117.6361,-34.625]},"properties":{"Name":"Mount Barker","State":"Western Australia","json":"http://www.bom.gov.au/fwo/IDW60801/IDW60801.94630.json"}},{"type":"Feature","geometry":{"type":"Point","coordinates":[138.8506,-35.0638]},"properties":{"Name":"Mount Barker","State":"Western Australia","json":"http://www.bom.gov.au/fwo/IDW60801/IDW60801.94630.json"}},{"type":"Feature","geometry":{"type":"Point","coordinates":[138.7088,-34.9784]},"properties":{"Name":"Mount Lofty","State":"South Australia","json":"http://www.bom.gov.au/fwo/IDS60801/IDS60801.95678.json"}},{"type":"Feature","geometry":{"type":"Point","coordinates":[115.9567,-26.8956]},"properties":{"Name":"Murchison","State":"Western Australia","json":"http://www.bom.gov.au/fwo/IDW60801/IDW60801.94422.json"}},{"type":"Feature","geometry":{"type":"Point","coordinates":[132.9268,-11.5485]},"properties":{"Name":"Murganella Airstrip","State":"Northern Territory","json":"http://www.bom.gov.au/fwo/IDD60801/IDD60801.94109.json"}},{"type":"Feature","geometry":{"type":"Point","coordinates":[140.7402,-36.9564]},"properties":{"Name":"Naracoorte","State":"South Australia","json":"http://www.bom.gov.au/fwo/IDS60801/IDS60801.94820.json"}},{"type":"Feature","geometry":{"type":"Point","coordinates":[146.514,-34.705]},"properties":{"Name":"Narrandera Airport","State":"New South Wales","json":"http://www.bom.gov.au/fwo/IDN60801/IDN60801.95706.json"}},{"type":"Feature","geometry":{"type":"Point","coordinates":[151.707,-32.8905]},"properties":{"Name":"Newcastle University","State":"New South Wales","json":"http://www.bom.gov.au/fwo/IDN60801/IDN60801.94781.json"}},{"type":"Feature","geometry":{"type":"Point","coordinates":[113.5936,-28.3008]},"properties":{"Name":"North Island","State":"Western Australia","json":"http://www.bom.gov.au/fwo/IDW60801/IDW60801.94405.json"}},{"type":"Feature","geometry":{"type":"Point","coordinates":[116.6586,-31.6508]},"properties":{"Name":"Northam","State":"Western Australia","json":"http://www.bom.gov.au/fwo/IDW60801/IDW60801.94621.json"}},{"type":"Feature","geometry":{"type":"Point","coordinates":[130.8976,-31.4492]},"properties":{"Name":"Nullarbor","State":"South Australia","json":"http://www.bom.gov.au/fwo/IDS60801/IDS60801.94651.json"}},{"type":"Feature","geometry":{"type":"Point","coordinates":[115.1092,-21.6689]},"properties":{"Name":"Onslow Airport","State":"Western Australia","json":"http://www.bom.gov.au/fwo/IDW60801/IDW60801.95305.json"}},{"type":"Feature","geometry":{"type":"Point","coordinates":[135.4484,-27.5498]},"properties":{"Name":"Oodnadatta","State":"South Australia","json":"http://www.bom.gov.au/fwo/IDS60801/IDS60801.94476.json"}},{"type":"Feature","geometry":{"type":"Point","coordinates":[117.6692,-23.2028]},"properties":{"Name":"Paraburdoo","State":"Western Australia","json":"http://www.bom.gov.au/fwo/IDW60801/IDW60801.94316.json"}},{"type":"Feature","geometry":{"type":"Point","coordinates":[116.0433,-34.4478]},"properties":{"Name":"Pemberton","State":"Western Australia","json":"http://www.bom.gov.au/fwo/IDW60801/IDW60801.95613.json"}},{"type":"Feature","geometry":{"type":"Point","coordinates":[115.9764,-31.9275]},"properties":{"Name":"Perth Airport","State":"Western Australia","json":"http://www.bom.gov.au/fwo/IDW60801/IDW60801.94610.json"}},{"type":"Feature","geometry":{"type":"Point","coordinates":[151.2448,-29.3899]},"properties":{"Name":"Pindari Dam","State":"New South Wales","json":"http://www.bom.gov.au/fwo/IDN60801/IDN60801.94544.json"}},{"type":"Feature","geometry":{"type":"Point","coordinates":[138.0014,-34.2971]},"properties":{"Name":"Price","State":"South Australia","json":"http://www.bom.gov.au/fwo/IDS60801/IDS60801.95669.json"}},{"type":"Feature","geometry":{"type":"Point","coordinates":[120.0458,-33.5803]},"properties":{"Name":"Ravensthorpe","State":"Western Australia","json":"http://www.bom.gov.au/fwo/IDW60801/IDW60801.94636.json"}},{"type":"Feature","geometry":{"type":"Point","coordinates":[153.0922,-27.2169]},"properties":{"Name":"Redcliffe","State":"Queensland","json":"http://www.bom.gov.au/fwo/IDQ60801/IDQ60801.95591.json"}},{"type":"Feature","geometry":{"type":"Point","coordinates":[145.3101,-38.4612]},"properties":{"Name":"Rhyll","State":"Victoria","json":"http://www.bom.gov.au/fwo/IDV60801/IDV60801.94892.json"}},{"type":"Feature","geometry":{"type":"Point","coordinates":[115.5022,-32.0069]},"properties":{"Name":"Rottnest Island","State":"Western Australia","json":"http://www.bom.gov.au/fwo/IDW60801/IDW60801.94602.json"}},{"type":"Feature","geometry":{"type":"Point","coordinates":[148.2644,-41.4639]},"properties":{"Name":"Scamander","State":"Tasmania","json":"http://www.bom.gov.au/fwo/IDT60801/IDT60801.95983.json"}},{"type":"Feature","geometry":{"type":"Point","coordinates":[113.5772,-25.8925]},"properties":{"Name":"Shark Bay Airport","State":"Western Australia","json":"http://www.bom.gov.au/fwo/IDW60801/IDW60801.95402.json"}},{"type":"Feature","geometry":{"type":"Point","coordinates":[144.1303,-37.9075]},"properties":{"Name":"Sheoaks","State":"Victoria","json":"http://www.bom.gov.au/fwo/IDV60801/IDV60801.94863.json"}},{"type":"Feature","geometry":{"type":"Point","coordinates":[144.8016,-38.3065]},"properties":{"Name":"South Channel Island","State":"Victoria","json":"http://www.bom.gov.au/fwo/IDV60801/IDV60801.94853.json"}},{"type":"Feature","geometry":{"type":"Point","coordinates":[142.8,-37.1]},"properties":{"Name":"Stawell","State":"Victoria","json":"http://www.bom.gov.au/fwo/IDV60801/IDV60801.94836.json"}},{"type":"Feature","geometry":{"type":"Point","coordinates":[142.7908,-37.0717]},"properties":{"Name":"Stawell","State":"Victoria","json":"http://www.bom.gov.au/fwo/IDV60801/IDV60801.94836.json"}},{"type":"Feature","geometry":{"type":"Point","coordinates":[136.9392,-35.2795]},"properties":{"Name":"Stenhouse Bay","State":"South Australia","json":"http://www.bom.gov.au/fwo/IDS60801/IDS60801.95806.json"}},{"type":"Feature","geometry":{"type":"Point","coordinates":[145.7308,-36.8472]},"properties":{"Name":"Strathbogie","State":"Victoria","json":"http://www.bom.gov.au/fwo/IDV60801/IDV60801.95843.json"}},{"type":"Feature","geometry":{"type":"Point","coordinates":[134.2116,-32.7963]},"properties":{"Name":"Streaky Bay","State":"South Australia","json":"http://www.bom.gov.au/fwo/IDS60801/IDS60801.94654.json"}},{"type":"Feature","geometry":{"type":"Point","coordinates":[148.125,-40.7292]},"properties":{"Name":"Swan Island","State":"Tasmania","json":"http://www.bom.gov.au/fwo/IDT60801/IDT60801.95985.json"}},{"type":"Feature","geometry":{"type":"Point","coordinates":[150.8467,-31.0867]},"properties":{"Name":"Tamworth Airport","State":"New South Wales","json":"http://www.bom.gov.au/fwo/IDN60801/IDN60801.95762.json"}},{"type":"Feature","geometry":{"type":"Point","coordinates":[134.5694,-30.7111]},"properties":{"Name":"Tarcoola","State":"South Australia","json":"http://www.bom.gov.au/fwo/IDS60801/IDS60801.94655.json"}},{"type":"Feature","geometry":{"type":"Point","coordinates":[148.3038,-36.5031]},"properties":{"Name":"Thredbo Village","State":"New South Wales","json":"http://www.bom.gov.au/fwo/IDN60801/IDN60801.95908.json"}},{"type":"Feature","geometry":{"type":"Point","coordinates":[142.0567,-29.4448]},"properties":{"Name":"Tibooburra Airport","State":"New South Wales","json":"http://www.bom.gov.au/fwo/IDN60801/IDN60801.95485.json"}},{"type":"Feature","geometry":{"type":"Point","coordinates":[130.4808,-15.6614]},"properties":{"Name":"Timber Creek","State":"Northern Territory","json":"http://www.bom.gov.au/fwo/IDD60801/IDD60801.94220.json"}},{"type":"Feature","geometry":{"type":"Point","coordinates":[126.1485,-13.7542]},"properties":{"Name":"Troughton Island","State":"Northern Territory","json":"http://www.bom.gov.au/fwo/IDD60801/IDD60801.94102.json"}},{"type":"Feature","geometry":{"type":"Point","coordinates":[126.3867,-14.09]},"properties":{"Name":"Truscott","State":"Western Australia","json":"http://www.bom.gov.au/fwo/IDW60801/IDW60801.95101.json"}},{"type":"Feature","geometry":{"type":"Point","coordinates":[150.4833,-35.3667]},"properties":{"Name":"Ulladulla","State":"New South Wales","json":"http://www.bom.gov.au/fwo/IDN60801/IDN60801.94938.json"}},{"type":"Feature","geometry":{"type":"Point","coordinates":[146.704,-43.0609]},"properties":{"Name":"Warra","State":"Tasmania","json":"http://www.bom.gov.au/fwo/IDT60801/IDT60801.95962.json"}},{"type":"Feature","geometry":{"type":"Point","coordinates":[152.1003,-28.2061]},"properties":{"Name":"Warwick","State":"Queensland","json":"http://www.bom.gov.au/fwo/IDQ60801/IDQ60801.94555.json"}},{"type":"Feature","geometry":{"type":"Point","coordinates":[150.6167,-34.7333]},"properties":{"Name":"Wattamolla","State":"New South Wales","json":"http://www.bom.gov.au/fwo/IDN60801/IDN60801.95752.json"}},{"type":"Feature","geometry":{"type":"Point","coordinates":[122.3122,-17.8964]},"properties":{"Name":"West Roebuck","State":"Western Australia","json":"http://www.bom.gov.au/fwo/IDW60801/IDW60801.95204.json"}},{"type":"Feature","geometry":{"type":"Point","coordinates":[142.9378,-37.7067]},"properties":{"Name":"Westmere","State":"Victoria","json":"http://www.bom.gov.au/fwo/IDV60801/IDV60801.95840.json"}},{"type":"Feature","geometry":{"type":"Point","coordinates":[143.0742,-30.8517]},"properties":{"Name":"White Cliffs AWS","State":"New South Wales","json":"http://www.bom.gov.au/fwo/IDN60801/IDN60801.95699.json"}},{"type":"Feature","geometry":{"type":"Point","coordinates":[150.1786,-22.4703]},"properties":{"Name":"Williamson","State":"Queensland","json":"http://www.bom.gov.au/fwo/IDQ60801/IDQ60801.95370.json"}},{"type":"Feature","geometry":{"type":"Point","coordinates":[149.9652,-16.2878]},"properties":{"Name":"Willis Island","State":"Queensland","json":"http://www.bom.gov.au/fwo/IDQ60801/IDQ60801.94299.json"}},{"type":"Feature","geometry":{"type":"Point","coordinates":[115.1042,-34.0281]},"properties":{"Name":"Witchcliffe","State":"Western Australia","json":"http://www.bom.gov.au/fwo/IDW60801/IDW60801.95641.json"}},{"type":"Feature","geometry":{"type":"Point","coordinates":[137.9462,-17.2122]},"properties":{"Name":"Wollogorang","State":"Northern Territory","json":"http://www.bom.gov.au/fwo/IDD60801/IDD60801.94258.json"}},{"type":"Feature","geometry":{"type":"Point","coordinates":[128.1247,-15.4872]},"properties":{"Name":"Wyndham","State":"Western Australia","json":"http://www.bom.gov.au/fwo/IDW60801/IDW60801.94214.json"}},{"type":"Feature","geometry":{"type":"Point","coordinates":[146.7479,-38.5647]},"properties":{"Name":"Yarram Airport","State":"Victoria","json":"http://www.bom.gov.au/fwo/IDV60801/IDV60801.95890.json"}},{"type":"Feature","geometry":{"type":"Point","coordinates":[146.0306,-36.0294]},"properties":{"Name":"Yarrawonga","State":"New South Wales","json":"http://www.bom.gov.au/fwo/IDN60801/IDN60801.94862.json"}},{"type":"Feature","geometry":{"type":"Point","coordinates":[138.7489,-33.0287]},"properties":{"Name":"Yongala","State":"South Australia","json":"http://www.bom.gov.au/fwo/IDS60801/IDS60801.94679.json"}},{"type":"Feature","geometry":{"type":"Point","coordinates":[116.765,-31.8997]},"properties":{"Name":"York","State":"Western Australia","json":"http://www.bom.gov.au/fwo/IDW60801/IDW60801.94623.json"}},{"type":"Feature","geometry":{"type":"Point","coordinates":[139.5611,-32.5819]},"properties":{"Name":"Yunta","State":"South Australia","json":"http://www.bom.gov.au/fwo/IDS60801/IDS60801.94684.json"}}]}